[{"name": "Gare SNCF de Paris Saint-Lazare", "categories": [{"id": "4bf58dd8d48988d129951735", "name": "Train Station", "pluralName": "Train Stations", "shortName": "Train Station", "icon": {"prefix": "https://ss3.4sqi.net/img/categories_v2/travel/trainstation_", "suffix": ".png"}, "primary": true}], "latitude": 48.87671166665712, "longitude": 2.3250675201416016, "location": {"type": "Point", "coordinates": [48.87671166665712, 2.3250675201416016]}}, {"name": "Gare SNCF de Paris Nord", "categories": [{"id": "4bf58dd8d48988d129951735", "name": "Train Station", "pluralName": "Train Stations", "shortName": "Train Station", "icon": {"prefix": "https://ss3.4sqi.net/img/categories_v2/travel/trainstation_", "suffix": ".png"}, "primary": true}], "latitude": 48.880431912140416, "longitude": 2.3552017111603223, "location": {"type": "Point", "coordinates": [48.880431912140416, 2.3552017111603223]}}, {"name": "Gare SNCF de Paris Est", "categories": [{"id": "4bf58dd8d48988d129951735", "name": "Train Station", "pluralName": "Train Stations", "shortName": "Train Station", "icon": {"prefix": "https://ss3.4sqi.net/img/categories_v2/travel/trainstation_", "suffix": ".png"}, "primary": true}], "latitude": 48.87720238624809, "longitude": 2.3596887079776705, "location": {"type": "Point", "coordinates": [48.87720238624809, 2.3596887079776705]}}, {"name": "Gare SNCF de Paris Lyon", "categories": [{"id": "4bf58dd8d48988d129951735", "name": "Train Station", "pluralName": "Train Stations", "shortName": "Train Station", "icon": {"prefix": "https://ss3.4sqi.net/img/categories_v2/travel/trainstation_", "suffix": ".png"}, "primary": true}], "latitude": 48.84429930010578, "longitude": 2.374849319458008, "location": {"type": "Point", "coordinates": [48.84429930010578, 2.374849319458008]}}, {"name": "Gare SNCF de Paris Montparnasse", "categories": [{"id": "4bf58dd8d48988d129951735", "name": "Train Station", "pluralName": "Train Stations", "shortName": "Train Station", "icon": {"prefix": "https://ss3.4sqi.net/img/categories_v2/travel/trainstation_", "suffix": ".png"}, "primary": true}], "latitude": 48.840669954572945, "longitude": 2.3198962211608887, "location": {"type": "Point", "coordinates": [48.840669954572945, 2.3198962211608887]}}, {"name": "Arr\u00eat Gare Saint-Lazare \u2013 Budapest [26,32,43,81,95]", "categories": [{"id": "52f2ab2ebcbc57f1066b8b4f", "name": "Bus Stop", "pluralName": "Bus Stops", "shortName": "Bus Stop", "icon": {"prefix": "https://ss3.4sqi.net/img/categories_v2/travel/busstation_", "suffix": ".png"}, "primary": true}], "latitude": 48.87562853485999, "longitude": 2.3274371084199856, "location": {"type": "Point", "coordinates": [48.87562853485999, 2.3274371084199856]}}, {"name": "Parking Paris Gare Saint-Lazare - EFFIA", "categories": [{"id": "4c38df4de52ce0d596b336e1", "name": "Parking", "pluralName": "Parking", "shortName": "Parking", "icon": {"prefix": "https://ss3.4sqi.net/img/categories_v2/building/parking_", "suffix": ".png"}, "primary": true}], "latitude": 48.87734475, "longitude": 2.32806103, "location": {"type": "Point", "coordinates": [48.87734475, 2.32806103]}}, {"name": "Noctilien Gare Saint-Lazare [N01,N02,N15,N16,N51,N52,N53,N150,N151,N152,N153]", "categories": [{"id": "4bf58dd8d48988d1fe931735", "name": "Bus Station", "pluralName": "Bus Stations", "shortName": "Bus Station", "icon": {"prefix": "https://ss3.4sqi.net/img/categories_v2/travel/busstation_", "suffix": ".png"}, "primary": true}], "latitude": 48.87547777773258, "longitude": 2.325318337115082, "location": {"type": "Point", "coordinates": [48.87547777773258, 2.325318337115082]}}, {"name": "Parking Effia Paris Gare Saint-Lazare", "categories": [{"id": "4c38df4de52ce0d596b336e1", "name": "Parking", "pluralName": "Parking", "shortName": "Parking", "icon": {"prefix": "https://ss3.4sqi.net/img/categories_v2/building/parking_", "suffix": ".png"}, "primary": true}], "latitude": 48.877149, "longitude": 2.327924, "location": {"type": "Point", "coordinates": [48.877149, 2.327924]}}, {"name": "RER Paris Gare du Nord [B,D]", "categories": [{"id": "4bf58dd8d48988d129951735", "name": "Train Station", "pluralName": "Train Stations", "shortName": "Train Station", "icon": {"prefix": "https://ss3.4sqi.net/img/categories_v2/travel/trainstation_", "suffix": ".png"}, "primary": true}], "latitude": 48.880931070468016, "longitude": 2.357211112976074, "location": {"type": "Point", "coordinates": [48.880931070468016, 2.357211112976074]}}, {"name": "Kiehl\u2019s Paris Gare Saint-Lazare", "categories": [{"id": "4bf58dd8d48988d10c951735", "name": "Cosmetics Shop", "pluralName": "Cosmetics Shops", "shortName": "Cosmetics", "icon": {"prefix": "https://ss3.4sqi.net/img/categories_v2/shops/beauty_cosmetic_", "suffix": ".png"}, "primary": true}], "latitude": 48.875889, "longitude": 2.324029, "location": {"type": "Point", "coordinates": [48.875889, 2.324029]}}, {"name": "Arr\u00eat Gare Saint-Lazare [20,21,22,24,26,27,28,29,32,53,66,80,94]", "categories": [{"id": "52f2ab2ebcbc57f1066b8b4f", "name": "Bus Stop", "pluralName": "Bus Stops", "shortName": "Bus Stop", "icon": {"prefix": "https://ss3.4sqi.net/img/categories_v2/travel/busstation_", "suffix": ".png"}, "primary": true}], "latitude": 48.87559678145669, "longitude": 2.3244452476501465, "location": {"type": "Point", "coordinates": [48.87559678145669, 2.3244452476501465]}}, {"name": "M\u00e9tro Gare de l'Est [4,5,7]", "categories": [{"id": "4bf58dd8d48988d1fd931735", "name": "Metro Station", "pluralName": "Metro Stations", "shortName": "Metro", "icon": {"prefix": "https://ss3.4sqi.net/img/categories_v2/travel/subway_", "suffix": ".png"}, "primary": true}], "latitude": 48.87685700339224, "longitude": 2.3593447369779392, "location": {"type": "Point", "coordinates": [48.87685700339224, 2.3593447369779392]}}, {"name": "M\u00e9tro Gare du Nord [4,5]", "categories": [{"id": "4bf58dd8d48988d1fd931735", "name": "Metro Station", "pluralName": "Metro Stations", "shortName": "Metro", "icon": {"prefix": "https://ss3.4sqi.net/img/categories_v2/travel/subway_", "suffix": ".png"}, "primary": true}], "latitude": 48.88030074953182, "longitude": 2.356591678331193, "location": {"type": "Point", "coordinates": [48.88030074953182, 2.356591678331193]}}, {"name": "C.C Les Boutiques de la Gare de l'Est", "categories": [{"id": "4bf58dd8d48988d1fd941735", "name": "Shopping Mall", "pluralName": "Shopping Malls", "shortName": "Mall", "icon": {"prefix": "https://ss3.4sqi.net/img/categories_v2/shops/mall_", "suffix": ".png"}, "primary": true}], "latitude": 48.87673630035212, "longitude": 2.3602856992131236, "location": {"type": "Point", "coordinates": [48.87673630035212, 2.3602856992131236]}}, {"name": "Ibis Gare du Nord - Lafayette", "categories": [{"id": "4bf58dd8d48988d1fa931735", "name": "Hotel", "pluralName": "Hotels", "shortName": "Hotel", "icon": {"prefix": "https://ss3.4sqi.net/img/categories_v2/travel/hotel_", "suffix": ".png"}, "primary": true}], "latitude": 48.87804206203535, "longitude": 2.3526816908073442, "location": {"type": "Point", "coordinates": [48.87804206203535, 2.3526816908073442]}}, {"name": "Gare SNCF de Paris Austerlitz", "categories": [{"id": "4bf58dd8d48988d129951735", "name": "Train Station", "pluralName": "Train Stations", "shortName": "Train Station", "icon": {"prefix": "https://ss3.4sqi.net/img/categories_v2/travel/trainstation_", "suffix": ".png"}, "primary": true}], "latitude": 48.841580846168306, "longitude": 2.3663413524627686, "location": {"type": "Point", "coordinates": [48.841580846168306, 2.3663413524627686]}}, {"name": "Gare SNCF de Pont Cardinet", "categories": [{"id": "4bf58dd8d48988d129951735", "name": "Train Station", "pluralName": "Train Stations", "shortName": "Train Station", "icon": {"prefix": "https://ss3.4sqi.net/img/categories_v2/travel/trainstation_", "suffix": ".png"}, "primary": true}], "latitude": 48.8878485702075, "longitude": 2.3141884803771973, "location": {"type": "Point", "coordinates": [48.8878485702075, 2.3141884803771973]}}, {"name": "H\u00f4tel Libertel Gare de l'Est Fran\u00e7ais", "categories": [{"id": "4bf58dd8d48988d1fa931735", "name": "Hotel", "pluralName": "Hotels", "shortName": "Hotel", "icon": {"prefix": "https://ss3.4sqi.net/img/categories_v2/travel/hotel_", "suffix": ".png"}, "primary": true}], "latitude": 48.87626015828488, "longitude": 2.3570870682968983, "location": {"type": "Point", "coordinates": [48.87626015828488, 2.3570870682968983]}}, {"name": "Best Western Paris Gare Saint-Lazare", "categories": [{"id": "4bf58dd8d48988d1fa931735", "name": "Hotel", "pluralName": "Hotels", "shortName": "Hotel", "icon": {"prefix": "https://ss3.4sqi.net/img/categories_v2/travel/hotel_", "suffix": ".png"}, "primary": true}], "latitude": 48.880356332884716, "longitude": 2.3196112364530563, "location": {"type": "Point", "coordinates": [48.880356332884716, 2.3196112364530563]}}, {"name": "Gare SNCF A\u00e9roport Charles de Gaulle TGV", "categories": [{"id": "4bf58dd8d48988d129951735", "name": "Train Station", "pluralName": "Train Stations", "shortName": "Train Station", "icon": {"prefix": "https://ss3.4sqi.net/img/categories_v2/travel/trainstation_", "suffix": ".png"}, "primary": true}], "latitude": 49.004131771008204, "longitude": 2.5710839565684336, "location": {"type": "Point", "coordinates": [49.004131771008204, 2.5710839565684336]}}, {"name": "Hotel Mercure Paris Gare du Nord La Fayette", "categories": [{"id": "4bf58dd8d48988d1fa931735", "name": "Hotel", "pluralName": "Hotels", "shortName": "Hotel", "icon": {"prefix": "https://ss3.4sqi.net/img/categories_v2/travel/hotel_", "suffix": ".png"}, "primary": true}], "latitude": 48.88012124326481, "longitude": 2.359488160720275, "location": {"type": "Point", "coordinates": [48.88012124326481, 2.359488160720275]}}, {"name": "St Christopher's Inn Gare du Nord", "categories": [{"id": "4bf58dd8d48988d1ee931735", "name": "Hostel", "pluralName": "Hostels", "shortName": "Hostel", "icon": {"prefix": "https://ss3.4sqi.net/img/categories_v2/travel/hostel_", "suffix": ".png"}, "primary": true}], "latitude": 48.879256861423656, "longitude": 2.357995379355746, "location": {"type": "Point", "coordinates": [48.879256861423656, 2.357995379355746]}}, {"name": "RER Gare de Lyon [A,D]", "categories": [{"id": "4bf58dd8d48988d129951735", "name": "Train Station", "pluralName": "Train Stations", "shortName": "Train Station", "icon": {"prefix": "https://ss3.4sqi.net/img/categories_v2/travel/trainstation_", "suffix": ".png"}, "primary": true}], "latitude": 48.84360734401206, "longitude": 2.374398708343506, "location": {"type": "Point", "coordinates": [48.84360734401206, 2.374398708343506]}}, {"name": "Jardins de la Gare de l\u2018Est", "categories": [{"id": "4bf58dd8d48988d15a941735", "name": "Garden", "pluralName": "Gardens", "shortName": "Garden", "icon": {"prefix": "https://ss3.4sqi.net/img/categories_v2/parks_outdoors/garden_", "suffix": ".png"}, "primary": true}], "latitude": 48.876473, "longitude": 2.358125, "location": {"type": "Point", "coordinates": [48.876473, 2.358125]}}, {"name": "Ibis Styles Gare de l'Est", "categories": [{"id": "4bf58dd8d48988d1fa931735", "name": "Hotel", "pluralName": "Hotels", "shortName": "Hotel", "icon": {"prefix": "https://ss3.4sqi.net/img/categories_v2/travel/hotel_", "suffix": ".png"}, "primary": true}], "latitude": 48.8756279, "longitude": 2.3585562, "location": {"type": "Point", "coordinates": [48.8756279, 2.3585562]}}, {"name": "Arr\u00eat Gare du Nord - Dunkerque [26,35,38,39,42,43,46,48, 54,65,302,350]", "categories": [{"id": "52f2ab2ebcbc57f1066b8b4f", "name": "Bus Stop", "pluralName": "Bus Stops", "shortName": "Bus Stop", "icon": {"prefix": "https://ss3.4sqi.net/img/categories_v2/travel/busstation_", "suffix": ".png"}, "primary": true}], "latitude": 48.88087482946213, "longitude": 2.3577720576390053, "location": {"type": "Point", "coordinates": [48.88087482946213, 2.3577720576390053]}}, {"name": "Gare SNCF d'Asni\u00e8res-sur-Seine", "categories": [{"id": "4bf58dd8d48988d129951735", "name": "Train Station", "pluralName": "Train Stations", "shortName": "Train Station", "icon": {"prefix": "https://ss3.4sqi.net/img/categories_v2/travel/trainstation_", "suffix": ".png"}, "primary": true}], "latitude": 48.90598046729507, "longitude": 2.283152511528648, "location": {"type": "Point", "coordinates": [48.90598046729507, 2.283152511528648]}}, {"name": "Noctilien Magenta \u2014 Maubeuge \u2014 Gare du Nord [N01,N02,N14,N44]", "categories": [{"id": "52f2ab2ebcbc57f1066b8b4f", "name": "Bus Stop", "pluralName": "Bus Stops", "shortName": "Bus Stop", "icon": {"prefix": "https://ss3.4sqi.net/img/categories_v2/travel/busstation_", "suffix": ".png"}, "primary": true}], "latitude": 48.880959292706535, "longitude": 2.35182523727417, "location": {"type": "Point", "coordinates": [48.880959292706535, 2.35182523727417]}}, {"name": "Noctilien La Fayette \u2014 Magenta \u2014 Gare du Nord [N01,N14,N44]", "categories": [{"id": "52f2ab2ebcbc57f1066b8b4f", "name": "Bus Stop", "pluralName": "Bus Stops", "shortName": "Bus Stop", "icon": {"prefix": "https://ss3.4sqi.net/img/categories_v2/travel/busstation_", "suffix": ".png"}, "primary": true}], "latitude": 48.87880024547142, "longitude": 2.3537135124206543, "location": {"type": "Point", "coordinates": [48.87880024547142, 2.3537135124206543]}}, {"name": "Hotel De L'Europe Gare Du Nord", "categories": [{"id": "4bf58dd8d48988d1fa931735", "name": "Hotel", "pluralName": "Hotels", "shortName": "Hotel", "icon": {"prefix": "https://ss3.4sqi.net/img/categories_v2/travel/hotel_", "suffix": ".png"}, "primary": true}], "latitude": 48.877788, "longitude": 2.355018, "location": {"type": "Point", "coordinates": [48.877788, 2.355018]}}, {"name": "Gare SNCF de Paris Bercy Bourgogne \u2013 Pays d'Auvergne", "categories": [{"id": "4bf58dd8d48988d129951735", "name": "Train Station", "pluralName": "Train Stations", "shortName": "Train Station", "icon": {"prefix": "https://ss3.4sqi.net/img/categories_v2/travel/trainstation_", "suffix": ".png"}, "primary": true}], "latitude": 48.8390034743598, "longitude": 2.382810115814209, "location": {"type": "Point", "coordinates": [48.8390034743598, 2.382810115814209]}}, {"name": "Les Boutiques de la Gare du Nord", "categories": [{"id": "4bf58dd8d48988d1fd941735", "name": "Shopping Mall", "pluralName": "Shopping Malls", "shortName": "Mall", "icon": {"prefix": "https://ss3.4sqi.net/img/categories_v2/shops/mall_", "suffix": ".png"}, "primary": true}], "latitude": 48.88057221875061, "longitude": 2.3550404404579637, "location": {"type": "Point", "coordinates": [48.88057221875061, 2.3550404404579637]}}, {"name": "Enterprise Location de voiture - Paris Gare du Nord", "categories": [{"id": "4bf58dd8d48988d1ef941735", "name": "Rental Car Location", "pluralName": "Rental Car Locations", "shortName": "Rental Car", "icon": {"prefix": "https://ss3.4sqi.net/img/categories_v2/shops/airport_rentalcar_", "suffix": ".png"}, "primary": true}], "latitude": 48.88016780619615, "longitude": 2.3548698134918595, "location": {"type": "Point", "coordinates": [48.88016780619615, 2.3548698134918595]}}, {"name": "H\u00f4tel citizenM Paris Gare de Lyon", "categories": [{"id": "4bf58dd8d48988d1fa931735", "name": "Hotel", "pluralName": "Hotels", "shortName": "Hotel", "icon": {"prefix": "https://ss3.4sqi.net/img/categories_v2/travel/hotel_", "suffix": ".png"}, "primary": true}], "latitude": 48.84383973736041, "longitude": 2.3714794382463573, "location": {"type": "Point", "coordinates": [48.84383973736041, 2.3714794382463573]}}, {"name": "H\u00f4tel Libertel Gare du Nord Su\u00e8de", "categories": [{"id": "4bf58dd8d48988d1fa931735", "name": "Hotel", "pluralName": "Hotels", "shortName": "Hotel", "icon": {"prefix": "https://ss3.4sqi.net/img/categories_v2/travel/hotel_", "suffix": ".png"}, "primary": true}], "latitude": 48.87800674594711, "longitude": 2.3547434487225027, "location": {"type": "Point", "coordinates": [48.87800674594711, 2.3547434487225027]}}, {"name": "Parking Paris Gare du Nord - EFFIA", "categories": [{"id": "4c38df4de52ce0d596b336e1", "name": "Parking", "pluralName": "Parking", "shortName": "Parking", "icon": {"prefix": "https://ss3.4sqi.net/img/categories_v2/building/parking_", "suffix": ".png"}, "primary": true}], "latitude": 48.87994605, "longitude": 2.3536563, "location": {"type": "Point", "coordinates": [48.87994605, 2.3536563]}}, {"name": "Arr\u00eat La Fayette\u2013Saint-Quentin\u2014Gare du Nord [26,54]", "categories": [{"id": "52f2ab2ebcbc57f1066b8b4f", "name": "Bus Stop", "pluralName": "Bus Stops", "shortName": "Bus Stop", "icon": {"prefix": "https://ss3.4sqi.net/img/categories_v2/travel/busstation_", "suffix": ".png"}, "primary": true}], "latitude": 48.879141042461136, "longitude": 2.355883281455, "location": {"type": "Point", "coordinates": [48.879141042461136, 2.355883281455]}}, {"name": "Ibis Gare du Nord - Ch\u00e2teau-Landon", "categories": [{"id": "4bf58dd8d48988d1fa931735", "name": "Hotel", "pluralName": "Hotels", "shortName": "Hotel", "icon": {"prefix": "https://ss3.4sqi.net/img/categories_v2/travel/hotel_", "suffix": ".png"}, "primary": true}], "latitude": 48.881027347210576, "longitude": 2.362773905214908, "location": {"type": "Point", "coordinates": [48.881027347210576, 2.362773905214908]}}, {"name": "Arr\u00eat Magenta \u2014 Maubeuge \u2014 Gare du Nord [30,31,54,56]", "categories": [{"id": "52f2ab2ebcbc57f1066b8b4f", "name": "Bus Stop", "pluralName": "Bus Stops", "shortName": "Bus Stop", "icon": {"prefix": "https://ss3.4sqi.net/img/categories_v2/travel/busstation_", "suffix": ".png"}, "primary": true}], "latitude": 48.88115148038053, "longitude": 2.3516142188948304, "location": {"type": "Point", "coordinates": [48.88115148038053, 2.3516142188948304]}}, {"name": "Arr\u00eat La Fayette \u2014 Magenta \u2014 Gare du Nord [30,31,56]", "categories": [{"id": "52f2ab2ebcbc57f1066b8b4f", "name": "Bus Stop", "pluralName": "Bus Stops", "shortName": "Bus Stop", "icon": {"prefix": "https://ss3.4sqi.net/img/categories_v2/travel/busstation_", "suffix": ".png"}, "primary": true}], "latitude": 48.87894912589756, "longitude": 2.3535179407572624, "location": {"type": "Point", "coordinates": [48.87894912589756, 2.3535179407572624]}}, {"name": "H\u00f4tel ibis Paris Gare du Nord TGV", "categories": [{"id": "4bf58dd8d48988d1fa931735", "name": "Hotel", "pluralName": "Hotels", "shortName": "Hotel", "icon": {"prefix": "https://ss3.4sqi.net/img/categories_v2/travel/hotel_", "suffix": ".png"}, "primary": true}], "latitude": 48.87921435076641, "longitude": 2.355616967736978, "location": {"type": "Point", "coordinates": [48.87921435076641, 2.355616967736978]}}, {"name": "Armurerie de la Gare de l'Est", "categories": [{"id": "52f2ab2ebcbc57f1066b8b19", "name": "Gun Shop", "pluralName": "Gun Shops", "shortName": "Gun Shop", "icon": {"prefix": "https://ss3.4sqi.net/img/categories_v2/parks_outdoors/gun_", "suffix": ".png"}, "primary": true}], "latitude": 48.874527, "longitude": 2.358708, "location": {"type": "Point", "coordinates": [48.874527, 2.358708]}}, {"name": "Office de Tourisme Paris Gare du Nord", "categories": [{"id": "4f4530164b9074f6e4fb00ff", "name": "Tourist Information Center", "pluralName": "Tourist Information Centers", "shortName": "Tourist Information", "icon": {"prefix": "https://ss3.4sqi.net/img/categories_v2/travel/touristinformation_", "suffix": ".png"}, "primary": true}], "latitude": 48.88064, "longitude": 2.3559203, "location": {"type": "Point", "coordinates": [48.88064, 2.3559203]}}, {"name": "Courtyard by Marriott Paris Gare de Lyon", "categories": [{"id": "4bf58dd8d48988d1fa931735", "name": "Hotel", "pluralName": "Hotels", "shortName": "Hotel", "icon": {"prefix": "https://ss3.4sqi.net/img/categories_v2/travel/hotel_", "suffix": ".png"}, "primary": true}], "latitude": 48.84509806469999, "longitude": 2.3713477553098983, "location": {"type": "Point", "coordinates": [48.84509806469999, 2.3713477553098983]}}, {"name": "Taxi Station Gare du Nord", "categories": [{"id": "53fca564498e1a175f32528b", "name": "Taxi Stand", "pluralName": "Taxi Stands", "shortName": "Taxi Stand", "icon": {"prefix": "https://ss3.4sqi.net/img/categories_v2/travel/taxi_", "suffix": ".png"}, "primary": true}], "latitude": 48.880589534143155, "longitude": 2.353860335323035, "location": {"type": "Point", "coordinates": [48.880589534143155, 2.353860335323035]}}, {"name": "Fnac Gare Paris-Nord", "categories": [{"id": "4bf58dd8d48988d1f6941735", "name": "Department Store", "pluralName": "Department Stores", "shortName": "Department Store", "icon": {"prefix": "https://ss3.4sqi.net/img/categories_v2/shops/departmentstore_", "suffix": ".png"}, "primary": true}], "latitude": 48.880932, "longitude": 2.355261, "location": {"type": "Point", "coordinates": [48.880932, 2.355261]}}, {"name": "Novotel Paris Centre Gare Montparnasse", "categories": [{"id": "4bf58dd8d48988d1fa931735", "name": "Hotel", "pluralName": "Hotels", "shortName": "Hotel", "icon": {"prefix": "https://ss3.4sqi.net/img/categories_v2/travel/hotel_", "suffix": ".png"}, "primary": true}], "latitude": 48.83843139733391, "longitude": 2.3149695381384845, "location": {"type": "Point", "coordinates": [48.83843139733391, 2.3149695381384845]}}, {"name": "Noctilien Gare de l'Est [N01,N02,N13,N14,N41,N42,N43,N44,N45,N140,N141,N142,N143,N144,N145]", "categories": [{"id": "52f2ab2ebcbc57f1066b8b4f", "name": "Bus Stop", "pluralName": "Bus Stops", "shortName": "Bus Stop", "icon": {"prefix": "https://ss3.4sqi.net/img/categories_v2/travel/busstation_", "suffix": ".png"}, "primary": true}], "latitude": 48.87620973543771, "longitude": 2.3579955490650604, "location": {"type": "Point", "coordinates": [48.87620973543771, 2.3579955490650604]}}, {"name": "Station Taxi Gare de Paris Est", "categories": [{"id": "4bf58dd8d48988d130951735", "name": "Taxi", "pluralName": "Taxis", "shortName": "Taxi", "icon": {"prefix": "https://ss3.4sqi.net/img/categories_v2/travel/taxi_", "suffix": ".png"}, "primary": true}], "latitude": 48.875857, "longitude": 2.358249, "location": {"type": "Point", "coordinates": [48.875857, 2.358249]}}]