[{"name": "Naturalia Vegan", "categories": [{"id": "50aa9e744b90af0d42d5de0e", "name": "Health Food Store", "pluralName": "Health Food Stores", "shortName": "Health Food Store", "icon": {"prefix": "https://ss3.4sqi.net/img/categories_v2/shops/food_grocery_", "suffix": ".png"}, "primary": true}], "latitude": 48.87384, "longitude": 2.34372, "location": {"type": "Point", "coordinates": [48.87384, 2.34372]}}, {"name": "Vegan Culinary Tours Paris", "categories": [{"id": "5267e4d9e4b0ec79466e48c8", "name": "Other Event", "pluralName": "Other Events", "shortName": "Other Event", "icon": {"prefix": "https://ss3.4sqi.net/img/categories_v2/event/default_", "suffix": ".png"}, "primary": true}], "latitude": 48.86717240434918, "longitude": 2.347164899110794, "location": {"type": "Point", "coordinates": [48.86717240434918, 2.347164899110794]}}, {"name": "Vegan Burger Bar", "categories": [{"id": "4bf58dd8d48988d1c4941735", "name": "Restaurant", "pluralName": "Restaurants", "shortName": "Restaurant", "icon": {"prefix": "https://ss3.4sqi.net/img/categories_v2/food/default_", "suffix": ".png"}, "primary": true}], "latitude": 48.868625, "longitude": 2.350059, "location": {"type": "Point", "coordinates": [48.868625, 2.350059]}}, {"name": "Gaby Super Natural Vegan", "categories": [{"id": "4bf58dd8d48988d1d3941735", "name": "Vegetarian / Vegan Restaurant", "pluralName": "Vegetarian / Vegan Restaurants", "shortName": "Vegetarian / Vegan", "icon": {"prefix": "https://ss3.4sqi.net/img/categories_v2/food/vegetarian_", "suffix": ".png"}, "primary": true}], "latitude": 48.86592384493837, "longitude": 2.3435861617326736, "location": {"type": "Point", "coordinates": [48.86592384493837, 2.3435861617326736]}}, {"name": "V\u00e9ganie", "categories": [{"id": "4bf58dd8d48988d10c951735", "name": "Cosmetics Shop", "pluralName": "Cosmetics Shops", "shortName": "Cosmetics", "icon": {"prefix": "https://ss3.4sqi.net/img/categories_v2/shops/beauty_cosmetic_", "suffix": ".png"}, "primary": true}], "latitude": 48.86290042062885, "longitude": 2.3515370674431324, "location": {"type": "Point", "coordinates": [48.86290042062885, 2.3515370674431324]}}, {"name": "Kapunka Vegan", "categories": [{"id": "4bf58dd8d48988d1d3941735", "name": "Vegetarian / Vegan Restaurant", "pluralName": "Vegetarian / Vegan Restaurants", "shortName": "Vegetarian / Vegan", "icon": {"prefix": "https://ss3.4sqi.net/img/categories_v2/food/vegetarian_", "suffix": ".png"}, "primary": true}], "latitude": 48.867793, "longitude": 2.348523, "location": {"type": "Point", "coordinates": [48.867793, 2.348523]}}, {"name": "Monsieur K Vegan", "categories": [{"id": "4bf58dd8d48988d1d3941735", "name": "Vegetarian / Vegan Restaurant", "pluralName": "Vegetarian / Vegan Restaurants", "shortName": "Vegetarian / Vegan", "icon": {"prefix": "https://ss3.4sqi.net/img/categories_v2/food/vegetarian_", "suffix": ".png"}, "primary": true}], "latitude": 48.86776, "longitude": 2.348585, "location": {"type": "Point", "coordinates": [48.86776, 2.348585]}}, {"name": "vegetarian / vegan", "categories": [{"id": "4bf58dd8d48988d1d3941735", "name": "Vegetarian / Vegan Restaurant", "pluralName": "Vegetarian / Vegan Restaurants", "shortName": "Vegetarian / Vegan", "icon": {"prefix": "https://ss3.4sqi.net/img/categories_v2/food/vegetarian_", "suffix": ".png"}, "primary": true}], "latitude": 48.861736, "longitude": 2.346641, "location": {"type": "Point", "coordinates": [48.861736, 2.346641]}}, {"name": "Bulldog Vegan", "categories": [{"id": "4bf58dd8d48988d1d3941735", "name": "Vegetarian / Vegan Restaurant", "pluralName": "Vegetarian / Vegan Restaurants", "shortName": "Vegetarian / Vegan", "icon": {"prefix": "https://ss3.4sqi.net/img/categories_v2/food/vegetarian_", "suffix": ".png"}, "primary": true}], "latitude": 48.882396, "longitude": 2.346566, "location": {"type": "Point", "coordinates": [48.882396, 2.346566]}}, {"name": "NATURALIA Vegan", "categories": [{"id": "50aa9e744b90af0d42d5de0e", "name": "Health Food Store", "pluralName": "Health Food Stores", "shortName": "Health Food Store", "icon": {"prefix": "https://ss3.4sqi.net/img/categories_v2/shops/food_grocery_", "suffix": ".png"}, "primary": true}], "latitude": 48.88649, "longitude": 2.31567, "location": {"type": "Point", "coordinates": [48.88649, 2.31567]}}, {"name": "Vegan", "categories": [{"id": "4bf58dd8d48988d1c7941735", "name": "Snack Place", "pluralName": "Snack Places", "shortName": "Snacks", "icon": {"prefix": "https://ss3.4sqi.net/img/categories_v2/food/snacks_", "suffix": ".png"}, "primary": true}], "latitude": 48.840431213378906, "longitude": 2.3687920570373535, "location": {"type": "Point", "coordinates": [48.840431213378906, 2.3687920570373535]}}, {"name": "Vegetarian / Vegan Restaurant", "categories": [{"id": "4bf58dd8d48988d1d3941735", "name": "Vegetarian / Vegan Restaurant", "pluralName": "Vegetarian / Vegan Restaurants", "shortName": "Vegetarian / Vegan", "icon": {"prefix": "https://ss3.4sqi.net/img/categories_v2/food/vegetarian_", "suffix": ".png"}, "primary": true}], "latitude": 48.863865, "longitude": 2.363583, "location": {"type": "Point", "coordinates": [48.863865, 2.363583]}}, {"name": "Un Monde Vegan", "categories": [{"id": "4bf58dd8d48988d1f9941735", "name": "Food & Drink Shop", "pluralName": "Food & Drink Shops", "shortName": "Food & Drink", "icon": {"prefix": "https://ss3.4sqi.net/img/categories_v2/shops/foodanddrink_", "suffix": ".png"}, "primary": true}], "latitude": 48.86771546478422, "longitude": 2.356690521081675, "location": {"type": "Point", "coordinates": [48.86771546478422, 2.356690521081675]}}, {"name": "Super Vegan", "categories": [{"id": "4bf58dd8d48988d1d3941735", "name": "Vegetarian / Vegan Restaurant", "pluralName": "Vegetarian / Vegan Restaurants", "shortName": "Vegetarian / Vegan", "icon": {"prefix": "https://ss3.4sqi.net/img/categories_v2/food/vegetarian_", "suffix": ".png"}, "primary": true}], "latitude": 48.892495, "longitude": 2.318394, "location": {"type": "Point", "coordinates": [48.892495, 2.318394]}}, {"name": "Super Vegan", "categories": [{"id": "4bf58dd8d48988d1d3941735", "name": "Vegetarian / Vegan Restaurant", "pluralName": "Vegetarian / Vegan Restaurants", "shortName": "Vegetarian / Vegan", "icon": {"prefix": "https://ss3.4sqi.net/img/categories_v2/food/vegetarian_", "suffix": ".png"}, "primary": true}], "latitude": 48.893295, "longitude": 2.32329, "location": {"type": "Point", "coordinates": [48.893295, 2.32329]}}, {"name": "Chacha Vegan Street Food", "categories": [{"id": "4bf58dd8d48988d1d3941735", "name": "Vegetarian / Vegan Restaurant", "pluralName": "Vegetarian / Vegan Restaurants", "shortName": "Vegetarian / Vegan", "icon": {"prefix": "https://ss3.4sqi.net/img/categories_v2/food/vegetarian_", "suffix": ".png"}, "primary": true}], "latitude": 48.881644, "longitude": 2.298055, "location": {"type": "Point", "coordinates": [48.881644, 2.298055]}}, {"name": "Vegan Folie's", "categories": [{"id": "4bf58dd8d48988d1bc941735", "name": "Cupcake Shop", "pluralName": "Cupcake Shops", "shortName": "Cupcakes", "icon": {"prefix": "https://ss3.4sqi.net/img/categories_v2/food/cupcakes_", "suffix": ".png"}, "primary": true}], "latitude": 48.843336845453955, "longitude": 2.3496123997756513, "location": {"type": "Point", "coordinates": [48.843336845453955, 2.3496123997756513]}}, {"name": "Bodhi Vegan", "categories": [{"id": "4bf58dd8d48988d1d3941735", "name": "Vegetarian / Vegan Restaurant", "pluralName": "Vegetarian / Vegan Restaurants", "shortName": "Vegetarian / Vegan", "icon": {"prefix": "https://ss3.4sqi.net/img/categories_v2/food/vegetarian_", "suffix": ".png"}, "primary": true}], "latitude": 48.87583, "longitude": 2.37018, "location": {"type": "Point", "coordinates": [48.87583, 2.37018]}}, {"name": "Veganbioburger", "categories": [{"id": "4bf58dd8d48988d1d3941735", "name": "Vegetarian / Vegan Restaurant", "pluralName": "Vegetarian / Vegan Restaurants", "shortName": "Vegetarian / Vegan", "icon": {"prefix": "https://ss3.4sqi.net/img/categories_v2/food/vegetarian_", "suffix": ".png"}, "primary": true}], "latitude": 48.866123, "longitude": 2.3440938, "location": {"type": "Point", "coordinates": [48.866123, 2.3440938]}}, {"name": "NATURALIA Vegan", "categories": [{"id": "50aa9e744b90af0d42d5de0e", "name": "Health Food Store", "pluralName": "Health Food Stores", "shortName": "Health Food Store", "icon": {"prefix": "https://ss3.4sqi.net/img/categories_v2/shops/food_grocery_", "suffix": ".png"}, "primary": true}], "latitude": 48.86194, "longitude": 2.38447, "location": {"type": "Point", "coordinates": [48.86194, 2.38447]}}, {"name": "V\u00e9ganie Paris", "categories": [{"id": "4bf58dd8d48988d10c951735", "name": "Cosmetics Shop", "pluralName": "Cosmetics Shops", "shortName": "Cosmetics", "icon": {"prefix": "https://ss3.4sqi.net/img/categories_v2/shops/beauty_cosmetic_", "suffix": ".png"}, "primary": true}], "latitude": 48.862899, "longitude": 2.351531, "location": {"type": "Point", "coordinates": [48.862899, 2.351531]}}, {"name": "Veganissim", "categories": [{"id": "4bf58dd8d48988d1d3941735", "name": "Vegetarian / Vegan Restaurant", "pluralName": "Vegetarian / Vegan Restaurants", "shortName": "Vegetarian / Vegan", "icon": {"prefix": "https://ss3.4sqi.net/img/categories_v2/food/vegetarian_", "suffix": ".png"}, "primary": true}], "latitude": 48.880885, "longitude": 2.31545, "location": {"type": "Point", "coordinates": [48.880885, 2.31545]}}, {"name": "Naturalia", "categories": [{"id": "50aa9e744b90af0d42d5de0e", "name": "Health Food Store", "pluralName": "Health Food Stores", "shortName": "Health Food Store", "icon": {"prefix": "https://ss3.4sqi.net/img/categories_v2/shops/food_grocery_", "suffix": ".png"}, "primary": true}], "latitude": 48.86394, "longitude": 2.37166, "location": {"type": "Point", "coordinates": [48.86394, 2.37166]}}, {"name": "Naturalia Vegan", "categories": [{"id": "50aa9e744b90af0d42d5de0e", "name": "Health Food Store", "pluralName": "Health Food Stores", "shortName": "Health Food Store", "icon": {"prefix": "https://ss3.4sqi.net/img/categories_v2/shops/food_grocery_", "suffix": ".png"}, "primary": true}], "latitude": 48.84515, "longitude": 2.42941, "location": {"type": "Point", "coordinates": [48.84515, 2.42941]}}, {"name": "1944 Gallery, Shop, Vegan Coffee", "categories": [{"id": "4bf58dd8d48988d1e2931735", "name": "Art Gallery", "pluralName": "Art Galleries", "shortName": "Art Gallery", "icon": {"prefix": "https://ss3.4sqi.net/img/categories_v2/arts_entertainment/artgallery_", "suffix": ".png"}, "primary": true}], "latitude": 48.83984, "longitude": 2.44459, "location": {"type": "Point", "coordinates": [48.83984, 2.44459]}}, {"name": "Naturalia", "categories": [{"id": "50aa9e744b90af0d42d5de0e", "name": "Health Food Store", "pluralName": "Health Food Stores", "shortName": "Health Food Store", "icon": {"prefix": "https://ss3.4sqi.net/img/categories_v2/shops/food_grocery_", "suffix": ".png"}, "primary": true}], "latitude": 48.8647153, "longitude": 2.3689899, "location": {"type": "Point", "coordinates": [48.8647153, 2.3689899]}}, {"name": "Hank Burger", "categories": [{"id": "4bf58dd8d48988d16c941735", "name": "Burger Joint", "pluralName": "Burger Joints", "shortName": "Burgers", "icon": {"prefix": "https://ss3.4sqi.net/img/categories_v2/food/burger_", "suffix": ".png"}, "primary": true}], "latitude": 48.86133967718125, "longitude": 2.3583035851275054, "location": {"type": "Point", "coordinates": [48.86133967718125, 2.3583035851275054]}}, {"name": "Le Comptoir Vegan", "categories": [], "latitude": 48.936367, "longitude": 2.4879194000000098, "location": {"type": "Point", "coordinates": [48.936367, 2.4879194000000098]}}, {"name": "Naturalia", "categories": [{"id": "50aa9e744b90af0d42d5de0e", "name": "Health Food Store", "pluralName": "Health Food Stores", "shortName": "Health Food Store", "icon": {"prefix": "https://ss3.4sqi.net/img/categories_v2/shops/food_grocery_", "suffix": ".png"}, "primary": true}], "latitude": 48.84521, "longitude": 2.43463, "location": {"type": "Point", "coordinates": [48.84521, 2.43463]}}, {"name": "La Maison V\u00e9gane", "categories": [{"id": "50aa9e744b90af0d42d5de0e", "name": "Health Food Store", "pluralName": "Health Food Stores", "shortName": "Health Food Store", "icon": {"prefix": "https://ss3.4sqi.net/img/categories_v2/shops/food_grocery_", "suffix": ".png"}, "primary": true}], "latitude": 48.879252, "longitude": 2.241002, "location": {"type": "Point", "coordinates": [48.879252, 2.241002]}}]